{
  "continent": "Australia",
  "hemisphere": "Southern",
  "six_month_patterns": {
    "month_1": {
      "temperature": {"avg": 28, "min": 15, "max": 42},
      "humidity": {"avg": 70, "min": 30, "max": 90},
      "precipitation": {"avg": 120, "min": 10, "max": 300},
      "wind_speed": {"avg": 20, "min": 5, "max": 40},
      "extreme_weather_risk": {"very_hot": 0.35, "very_cold": 0.02, "very_windy": 0.18, "very_wet": 0.25, "very_uncomfortable": 0.30}
    },
    "month_2": {
      "temperature": {"avg": 30, "min": 18, "max": 45},
      "humidity": {"avg": 72, "min": 35, "max": 92},
      "precipitation": {"avg": 140, "min": 15, "max": 350},
      "wind_speed": {"avg": 22, "min": 6, "max": 42},
      "extreme_weather_risk": {"very_hot": 0.40, "very_cold": 0.01, "very_windy": 0.20, "very_wet": 0.30, "very_uncomfortable": 0.35}
    },
    "month_3": {
      "temperature": {"avg": 32, "min": 20, "max": 48},
      "humidity": {"avg": 75, "min": 40, "max": 95},
      "precipitation": {"avg": 160, "min": 20, "max": 400},
      "wind_speed": {"avg": 25, "min": 8, "max": 45},
      "extreme_weather_risk": {"very_hot": 0.45, "very_cold": 0.005, "very_windy": 0.22, "very_wet": 0.35, "very_uncomfortable": 0.40}
    },
    "month_4": {
      "temperature": {"avg": 30, "min": 18, "max": 45},
      "humidity": {"avg": 72, "min": 35, "max": 92},
      "precipitation": {"avg": 140, "min": 15, "max": 350},
      "wind_speed": {"avg": 22, "min": 6, "max": 42},
      "extreme_weather_risk": {"very_hot": 0.40, "very_cold": 0.01, "very_windy": 0.20, "very_wet": 0.30, "very_uncomfortable": 0.35}
    },
    "month_5": {
      "temperature": {"avg": 25, "min": 12, "max": 38},
      "humidity": {"avg": 65, "min": 25, "max": 85},
      "precipitation": {"avg": 100, "min": 5, "max": 250},
      "wind_speed": {"avg": 18, "min": 4, "max": 35},
      "extreme_weather_risk": {"very_hot": 0.25, "very_cold": 0.05, "very_windy": 0.15, "very_wet": 0.20, "very_uncomfortable": 0.22}
    },
    "month_6": {
      "temperature": {"avg": 20, "min": 8, "max": 32},
      "humidity": {"avg": 60, "min": 20, "max": 80},
      "precipitation": {"avg": 80, "min": 2, "max": 200},
      "wind_speed": {"avg": 16, "min": 3, "max": 32},
      "extreme_weather_risk": {"very_hot": 0.15, "very_cold": 0.08, "very_windy": 0.12, "very_wet": 0.15, "very_uncomfortable": 0.15}
    }
  },
  "representative_cities": [
    {"name": "Sydney", "lat": -33.8688, "lon": 151.2093, "climate_zone": "temperate"},
    {"name": "Melbourne", "lat": -37.8136, "lon": 144.9631, "climate_zone": "temperate"},
    {"name": "Brisbane", "lat": -27.4698, "lon": 153.0251, "climate_zone": "subtropical"},
    {"name": "Perth", "lat": -31.9505, "lon": 115.8605, "climate_zone": "mediterranean"},
    {"name": "Adelaide", "lat": -34.9285, "lon": 138.6007, "climate_zone": "mediterranean"},
    {"name": "Darwin", "lat": -12.4634, "lon": 130.8456, "climate_zone": "tropical"},
    {"name": "Hobart", "lat": -42.8821, "lon": 147.3272, "climate_zone": "temperate"},
    {"name": "Alice Springs", "lat": -23.7000, "lon": 133.8667, "climate_zone": "arid"}
  ]
}
